[
    {
        "url": "https://tylercowensethnicdiningguide.com/index.php/takumi/", 
        "name": "Takumi", 
        "coordinates": [
            -77.173571, 
            38.8806523
        ], 
        "address": "310 S. Washington Blvd., Falls Church, VA"
    }, 
    {
        "url": "https://tylercowensethnicdiningguide.com/index.php/marib/", 
        "name": "Marib", 
        "coordinates": [
            -77.1845226, 
            38.795231
        ], 
        "address": "6981 Hechinger Drive, Springfield, VA"
    }, 
    {
        "url": "https://tylercowensethnicdiningguide.com/index.php/baan-thai/", 
        "name": "Baan Thai", 
        "coordinates": [
            -77.0323549, 
            38.9081481
        ], 
        "address": "1326 14th Street NW, Washington, DC"
    }, 
    {
        "url": "https://tylercowensethnicdiningguide.com/index.php/nanjing-bistro/", 
        "name": "Nanjing Bistro", 
        "coordinates": [
            -77.3340245, 
            38.8502313
        ], 
        "address": "11213 Lee Highway, Suite C, Fairfax, VA"
    }, 
    {
        "url": "https://tylercowensethnicdiningguide.com/index.php/dcity-smokehouse/", 
        "name": "DCity SmokeHouse", 
        "coordinates": [
            -77.0094146, 
            38.9108082
        ], 
        "address": "8 Florida Avenue NW, Washington, DC"
    }, 
    {
        "url": "https://tylercowensethnicdiningguide.com/index.php/roses-luxury/", 
        "name": "Roses Luxury", 
        "coordinates": [
            -76.9952611, 
            38.8809468
        ], 
        "address": "707 8th Street SE, Washington, DC"
    }, 
    {
        "url": "https://tylercowensethnicdiningguide.com/index.php/super-bowl-noodle-house/", 
        "name": "Super Bowl Noodle House", 
        "coordinates": [
            -77.1414422, 
            39.0769099
        ], 
        "address": "785-G Rockville Pike, Rockville, MD"
    }, 
    {
        "url": "https://tylercowensethnicdiningguide.com/index.php/hunan-taste/", 
        "name": "Hunan Taste", 
        "coordinates": [
            -77.29604549999999, 
            38.8621769
        ], 
        "address": "10160 Fairfax Blvd., Fairfax, VA"
    }, 
    {
        "url": "https://tylercowensethnicdiningguide.com/index.php/the-partisan/", 
        "name": "The Partisan", 
        "coordinates": [
            -77.022516, 
            38.89502600000001
        ], 
        "address": "709 D Street NW, Washington, DC"
    }, 
    {
        "url": "https://tylercowensethnicdiningguide.com/index.php/saba/", 
        "name": "Saba", 
        "coordinates": [
            -77.27111579999999, 
            38.8441574
        ], 
        "address": "3900 A Pickett Road, Fairfax, VA"
    }, 
    {
        "url": "https://tylercowensethnicdiningguide.com/index.php/thai-taste-by-kob/", 
        "name": "Thai Taste by Kob", 
        "coordinates": [
            -77.04918119999999, 
            39.0406586
        ], 
        "address": "11315 Fern Street, Wheaton, MD"
    }, 
    {
        "url": "https://tylercowensethnicdiningguide.com/index.php/charcoal-chicken/", 
        "name": "Charcoal Chicken", 
        "coordinates": [
            -77.4283257, 
            38.895558
        ], 
        "address": "13969 Metrotech Dr., Chantilly, VA"
    }, 
    {
        "url": "https://tylercowensethnicdiningguide.com/index.php/elephant-jumps-update/", 
        "name": "Elephant Jumps  Update", 
        "coordinates": [
            -77.225781, 
            38.8668415
        ], 
        "address": "8110 A Arlington Blvd, Falls Church, VA"
    }, 
    {
        "url": "https://tylercowensethnicdiningguide.com/index.php/shakthi/", 
        "name": "Shakthi", 
        "coordinates": [
            -77.0623153, 
            38.8395962
        ], 
        "address": "3807 Mount Vernon Avenue, Alexandria, VA"
    }, 
    {
        "url": "https://tylercowensethnicdiningguide.com/index.php/siroo/", 
        "name": "Siroo", 
        "coordinates": [
            -77.1978578, 
            38.832556
        ], 
        "address": "4231-N Markham Street, Annandale, VA"
    }, 
    {
        "url": "https://tylercowensethnicdiningguide.com/index.php/aladdin/", 
        "name": "Aladdin", 
        "coordinates": [
            -77.1325171, 
            38.8967032
        ], 
        "address": "5169 Lee Highway, Garden City Shopping Center, Arlington, VA"
    }, 
    {
        "url": "https://tylercowensethnicdiningguide.com/index.php/blue-sand-seafood/", 
        "name": "Blue Sand Seafood", 
        "coordinates": [
            -77.1978578, 
            38.832556
        ], 
        "address": "4231-H Markham Street, Annandale, VA"
    }, 
    {
        "url": "https://tylercowensethnicdiningguide.com/index.php/kogiya-korean-bbq/", 
        "name": "Kogiya, Korean BBQ", 
        "coordinates": [
            -77.1970837, 
            38.8318732
        ], 
        "address": "4220 Annandale Road, Annandale, VA"
    }, 
    {
        "url": "https://tylercowensethnicdiningguide.com/index.php/nostos/", 
        "name": "Nostos", 
        "coordinates": [
            -77.2258873, 
            38.9136862
        ], 
        "address": "8100 Boone Blvd, Vienna, VA"
    }, 
    {
        "url": "https://tylercowensethnicdiningguide.com/index.php/elephant-jumps/", 
        "name": "Elephant Jumps", 
        "coordinates": [
            -77.225781, 
            38.8668415
        ], 
        "address": "8110 A Arlington Blvd, Falls Church, VA"
    }, 
    {
        "url": "https://tylercowensethnicdiningguide.com/index.php/panda-gourmet/", 
        "name": "Panda Gourmet", 
        "coordinates": [
            -76.9696211, 
            38.9178218
        ], 
        "address": "2700 New York Avenue NE, Washington, DC"
    }, 
    {
        "url": "https://tylercowensethnicdiningguide.com/index.php/bobs-shanghai-66/", 
        "name": "Bobs Shanghai 66", 
        "coordinates": [
            -77.1537037, 
            39.088721
        ], 
        "address": "305 North Washington Street, Rockville, MD"
    }, 
    {
        "url": "https://tylercowensethnicdiningguide.com/index.php/east-dumpling-house/", 
        "name": "East Dumpling House", 
        "coordinates": [
            -77.153442, 
            39.084665
        ], 
        "address": "12 North Washington St., Suite 14G, Rockville, MD"
    }, 
    {
        "url": "https://tylercowensethnicdiningguide.com/index.php/gharer-khabar-2/", 
        "name": "Gharer Khabar", 
        "coordinates": [
            -77.1323192, 
            38.8966875
        ], 
        "address": "5151 Lee Highway, Arlington, VA"
    }, 
    {
        "url": "https://tylercowensethnicdiningguide.com/index.php/jewel-of-india/", 
        "name": "Jewel of India", 
        "coordinates": [
            -76.9768124, 
            39.0211723
        ], 
        "address": "10151 New Hampshire Avenue, Silver Spring, MD"
    }, 
    {
        "url": "https://tylercowensethnicdiningguide.com/index.php/keren-restaurant/", 
        "name": "Keren Restaurant", 
        "coordinates": [
            -77.0412576, 
            38.916789
        ], 
        "address": "1780 Florida Avenue NW, Washington, DC"
    }, 
    {
        "url": "https://tylercowensethnicdiningguide.com/index.php/hunan-gate-restaurant/", 
        "name": "Hunan Gate Restaurant", 
        "coordinates": [
            -77.1116953, 
            38.8824817
        ], 
        "address": "4233 N. Fairfax Drive, Arlington, VA"
    }, 
    {
        "url": "https://tylercowensethnicdiningguide.com/index.php/bang-ga-nae/", 
        "name": "Bang Ga Nae", 
        "coordinates": [
            -77.1573866, 
            38.8208735
        ], 
        "address": "6499 Little River Turnpike, Alexandria, VA"
    }, 
    {
        "url": "https://tylercowensethnicdiningguide.com/index.php/rr-tacqueria-gas-station-tacos/", 
        "name": "R&R Tacqueria  Gas station tacos", 
        "coordinates": [
            -76.7847771, 
            39.1725698
        ], 
        "address": "7894 Washington Blvd. (Rt.1), Elkridge, MD"
    }, 
    {
        "url": "https://tylercowensethnicdiningguide.com/index.php/damoim/", 
        "name": "DaMoim", 
        "coordinates": [
            -77.1914376, 
            38.833016
        ], 
        "address": "7106 Columbia Pike, Annandale, VA"
    }
]