[
    {
        "coordinates": [
            -77.0323817,
            38.90815500000001
        ],
        "url": "https://tylercowensethnicdiningguide.com/index.php/baan-thai/",
        "name": "Baan Thai",
        "address": "1326 14th Street NW, Washington, DC"
    },
    {
        "coordinates": [
            -77.33416319999999,
            38.8502173
        ],
        "url": "https://tylercowensethnicdiningguide.com/index.php/nanjing-bistro/",
        "name": "Nanjing Bistro",
        "address": "11213 Lee Highway, Suite C, Fairfax, VA"
    },
    {
        "coordinates": [
            -77.0094146,
            38.9108082
        ],
        "url": "https://tylercowensethnicdiningguide.com/index.php/dcity-smokehouse/",
        "name": "DCity SmokeHouse",
        "address": "8 Florida Avenue NW, Washington, DC"
    },
    {
        "coordinates": [
            -76.995311,
            38.880922
        ],
        "url": "https://tylercowensethnicdiningguide.com/index.php/roses-luxury/",
        "name": "Rose’s Luxury",
        "address": "707 8th Street SE, Washington, DC"
    },
    {
        "coordinates": [
            -77.1413993,
            39.0767772
        ],
        "url": "https://tylercowensethnicdiningguide.com/index.php/super-bowl-noodle-house/",
        "name": "Super Bowl Noodle House",
        "address": "785-G Rockville Pike, Rockville, MD"
    },
    {
        "coordinates": [
            -77.2960362,
            38.8621481
        ],
        "url": "https://tylercowensethnicdiningguide.com/index.php/hunan-taste/",
        "name": "Hunan Taste",
        "address": "10160 Fairfax Blvd., Fairfax, VA"
    },
    {
        "coordinates": [
            -77.0224692,
            38.8949871
        ],
        "url": "https://tylercowensethnicdiningguide.com/index.php/the-partisan/",
        "name": "The Partisan",
        "address": "709 D Street NW, Washington, DC"
    },
    {
        "coordinates": [
            -77.27111579999999,
            38.8441574
        ],
        "url": "https://tylercowensethnicdiningguide.com/index.php/saba/",
        "name": "Saba",
        "address": "3900 A Pickett Road, Fairfax, VA"
    },
    {
        "coordinates": [
            -77.04915799999999,
            39.040656
        ],
        "url": "https://tylercowensethnicdiningguide.com/index.php/thai-taste-by-kob/",
        "name": "Thai Taste by Kob",
        "address": "11315 Fern Street, Wheaton, MD"
    },
    {
        "coordinates": [
            -77.4283257,
            38.895558
        ],
        "url": "https://tylercowensethnicdiningguide.com/index.php/charcoal-chicken/",
        "name": "Charcoal Chicken",
        "address": "13969 Metrotech Dr., Chantilly, VA"
    },
    {
        "coordinates": [
            -77.225781,
            38.8668415
        ],
        "url": "https://tylercowensethnicdiningguide.com/index.php/elephant-jumps-update/",
        "name": "Elephant Jumps – Update",
        "address": "8110 A Arlington Blvd, Falls Church, VA"
    },
    {
        "coordinates": [
            -77.0623153,
            38.8395962
        ],
        "url": "https://tylercowensethnicdiningguide.com/index.php/shakthi/",
        "name": "Shakthi",
        "address": "3807 Mount Vernon Avenue, Alexandria, VA"
    },
    {
        "coordinates": [
            -77.19785569999999,
            38.832573
        ],
        "url": "https://tylercowensethnicdiningguide.com/index.php/siroo/",
        "name": "Siroo",
        "address": "4231-N Markham Street, Annandale, VA"
    },
    {
        "coordinates": [
            -77.19785569999999,
            38.832573
        ],
        "url": "https://tylercowensethnicdiningguide.com/index.php/blue-sand-seafood/",
        "name": "Blue Sand Seafood",
        "address": "4231-H Markham Street, Annandale, VA"
    },
    {
        "coordinates": [
            -77.1970375,
            38.8318794
        ],
        "url": "https://tylercowensethnicdiningguide.com/index.php/kogiya-korean-bbq/",
        "name": "Kogiya, Korean BBQ",
        "address": "4220 Annandale Road, Annandale, VA"
    },
    {
        "coordinates": [
            -77.225894,
            38.9138145
        ],
        "url": "https://tylercowensethnicdiningguide.com/index.php/nostos/",
        "name": "Nostos",
        "address": "8100 Boone Blvd, Vienna, VA"
    },
    {
        "coordinates": [
            -77.225781,
            38.8668415
        ],
        "url": "https://tylercowensethnicdiningguide.com/index.php/elephant-jumps/",
        "name": "Elephant Jumps",
        "address": "8110 A Arlington Blvd, Falls Church, VA"
    },
    {
        "coordinates": [
            -76.97047210000001,
            38.9177601
        ],
        "url": "https://tylercowensethnicdiningguide.com/index.php/panda-gourmet/",
        "name": "Panda Gourmet",
        "address": "2700 New York Avenue NE, Washington, DC"
    },
    {
        "coordinates": [
            -77.1536847,
            39.0887012
        ],
        "url": "https://tylercowensethnicdiningguide.com/index.php/bobs-shanghai-66/",
        "name": "Bob’s Shanghai 66",
        "address": "305 North Washington Street, Rockville, MD"
    },
    {
        "coordinates": [
            -77.153442,
            39.084665
        ],
        "url": "https://tylercowensethnicdiningguide.com/index.php/east-dumpling-house/",
        "name": "East Dumpling House",
        "address": "12 North Washington St., Suite 14G, Rockville, MD"
    },
    {
        "coordinates": [
            -77.1323192,
            38.8966875
        ],
        "url": "https://tylercowensethnicdiningguide.com/index.php/gharer-khabar-2/",
        "name": "Gharer Khabar",
        "address": "5151 Lee Highway, Arlington, VA"
    },
    {
        "coordinates": [
            -76.9767962,
            39.0211799
        ],
        "url": "https://tylercowensethnicdiningguide.com/index.php/jewel-of-india/",
        "name": "Jewel of India",
        "address": "10151 New Hampshire Avenue, Silver Spring, MD"
    },
    {
        "coordinates": [
            -77.0412654,
            38.9167413
        ],
        "url": "https://tylercowensethnicdiningguide.com/index.php/keren-restaurant/",
        "name": "Keren Restaurant",
        "address": "1780 Florida Avenue NW, Washington, DC"
    },
    {
        "coordinates": [
            -77.0905095,
            38.8886106
        ],
        "url": "https://tylercowensethnicdiningguide.com/index.php/hunan-gate-restaurant/",
        "name": "Hunan Gate Restaurant",
        "address": "4233 N. Fairfax Drive, Arlington, VA"
    },
    {
        "coordinates": [
            -77.1573982,
            38.820854
        ],
        "url": "https://tylercowensethnicdiningguide.com/index.php/bang-ga-nae/",
        "name": "Bang Ga Nae",
        "address": "6499 Little River Turnpike, Alexandria, VA"
    },
    {
        "coordinates": [
            -77.1914376,
            38.833016
        ],
        "url": "https://tylercowensethnicdiningguide.com/index.php/damoim/",
        "name": "DaMoim",
        "address": "7106 Columbia Pike, Annandale, VA"
    },
    {
        "coordinates": [
            -77.1943775,
            38.8311751
        ],
        "url": "https://tylercowensethnicdiningguide.com/index.php/mandu-rang-kimbob/",
        "name": "Mandu Rang Kimbob",
        "address": "7217 Columbia Pike, Annandale, VA,"
    },
    {
        "coordinates": [
            -77.1756856,
            38.8802517
        ],
        "url": "https://tylercowensethnicdiningguide.com/index.php/super-chicken/",
        "name": "Super Chicken",
        "address": "422 S. Washington Street, Falls Church, VA"
    }
]