[
    {
        "url": "https://tylercowensethnicdiningguide.com/index.php/baan-thai/", 
        "name": "Baan Thai", 
        "coordinates": [
            -77.0323817, 
            38.90815500000001
        ], 
        "address": "1326 14th Street NW, Washington, DC"
    }, 
    {
        "url": "https://tylercowensethnicdiningguide.com/index.php/nanjing-bistro/", 
        "name": "Nanjing Bistro", 
        "coordinates": [
            -77.33416319999999, 
            38.8502173
        ], 
        "address": "11213 Lee Highway, Suite C, Fairfax, VA"
    }, 
    {
        "url": "https://tylercowensethnicdiningguide.com/index.php/dcity-smokehouse/", 
        "name": "DCity SmokeHouse", 
        "coordinates": [
            -77.0094146, 
            38.9108082
        ], 
        "address": "8 Florida Avenue NW, Washington, DC"
    }, 
    {
        "url": "https://tylercowensethnicdiningguide.com/index.php/roses-luxury/", 
        "name": "Roses Luxury", 
        "coordinates": [
            -76.9952611, 
            38.8809468
        ], 
        "address": "707 8th Street SE, Washington, DC"
    }, 
    {
        "url": "https://tylercowensethnicdiningguide.com/index.php/super-bowl-noodle-house/", 
        "name": "Super Bowl Noodle House", 
        "coordinates": [
            -77.14141579999999, 
            39.0768915
        ], 
        "address": "785-G Rockville Pike, Rockville, MD"
    }, 
    {
        "url": "https://tylercowensethnicdiningguide.com/index.php/hunan-taste/", 
        "name": "Hunan Taste", 
        "coordinates": [
            -77.2960362, 
            38.8621481
        ], 
        "address": "10160 Fairfax Blvd., Fairfax, VA"
    }, 
    {
        "url": "https://tylercowensethnicdiningguide.com/index.php/the-partisan/", 
        "name": "The Partisan", 
        "coordinates": [
            -77.0224692, 
            38.8949871
        ], 
        "address": "709 D Street NW, Washington, DC"
    }, 
    {
        "url": "https://tylercowensethnicdiningguide.com/index.php/saba/", 
        "name": "Saba", 
        "coordinates": [
            -77.27103280000001, 
            38.8440697
        ], 
        "address": "3900 A Pickett Road, Fairfax, VA"
    }, 
    {
        "url": "https://tylercowensethnicdiningguide.com/index.php/thai-taste-by-kob/", 
        "name": "Thai Taste by Kob", 
        "coordinates": [
            -77.04915799999999, 
            39.040656
        ], 
        "address": "11315 Fern Street, Wheaton, MD"
    }, 
    {
        "url": "https://tylercowensethnicdiningguide.com/index.php/charcoal-chicken/", 
        "name": "Charcoal Chicken", 
        "coordinates": [
            -77.4283257, 
            38.895558
        ], 
        "address": "13969 Metrotech Dr., Chantilly, VA"
    }, 
    {
        "url": "https://tylercowensethnicdiningguide.com/index.php/elephant-jumps-update/", 
        "name": "Elephant Jumps  Update", 
        "coordinates": [
            -77.225781, 
            38.8668415
        ], 
        "address": "8110 A Arlington Blvd, Falls Church, VA"
    }, 
    {
        "url": "https://tylercowensethnicdiningguide.com/index.php/shakthi/", 
        "name": "Shakthi", 
        "coordinates": [
            -77.0623153, 
            38.8395962
        ], 
        "address": "3807 Mount Vernon Avenue, Alexandria, VA"
    }, 
    {
        "url": "https://tylercowensethnicdiningguide.com/index.php/siroo/", 
        "name": "Siroo", 
        "coordinates": [
            -77.19785569999999, 
            38.832573
        ], 
        "address": "4231-N Markham Street, Annandale, VA"
    }, 
    {
        "url": "https://tylercowensethnicdiningguide.com/index.php/blue-sand-seafood/", 
        "name": "Blue Sand Seafood", 
        "coordinates": [
            -77.19785569999999, 
            38.832573
        ], 
        "address": "4231-H Markham Street, Annandale, VA"
    }, 
    {
        "url": "https://tylercowensethnicdiningguide.com/index.php/kogiya-korean-bbq/", 
        "name": "Kogiya, Korean BBQ", 
        "coordinates": [
            -77.1970375, 
            38.8318794
        ], 
        "address": "4220 Annandale Road, Annandale, VA"
    }, 
    {
        "url": "https://tylercowensethnicdiningguide.com/index.php/nostos/", 
        "name": "Nostos", 
        "coordinates": [
            -77.225894, 
            38.9138145
        ], 
        "address": "8100 Boone Blvd, Vienna, VA"
    }, 
    {
        "url": "https://tylercowensethnicdiningguide.com/index.php/elephant-jumps/", 
        "name": "Elephant Jumps", 
        "coordinates": [
            -77.225781, 
            38.8668415
        ], 
        "address": "8110 A Arlington Blvd, Falls Church, VA"
    }, 
    {
        "url": "https://tylercowensethnicdiningguide.com/index.php/panda-gourmet/", 
        "name": "Panda Gourmet", 
        "coordinates": [
            -76.97047210000001, 
            38.9177601
        ], 
        "address": "2700 New York Avenue NE, Washington, DC"
    }, 
    {
        "url": "https://tylercowensethnicdiningguide.com/index.php/bobs-shanghai-66/", 
        "name": "Bobs Shanghai 66", 
        "coordinates": [
            -77.1536844, 
            39.0887012
        ], 
        "address": "305 North Washington Street, Rockville, MD"
    }, 
    {
        "url": "https://tylercowensethnicdiningguide.com/index.php/east-dumpling-house/", 
        "name": "East Dumpling House", 
        "coordinates": [
            -77.153442, 
            39.084665
        ], 
        "address": "12 North Washington St., Suite 14G, Rockville, MD"
    }, 
    {
        "url": "https://tylercowensethnicdiningguide.com/index.php/gharer-khabar-2/", 
        "name": "Gharer Khabar", 
        "coordinates": [
            -77.1323192, 
            38.8966875
        ], 
        "address": "5151 Lee Highway, Arlington, VA"
    }, 
    {
        "url": "https://tylercowensethnicdiningguide.com/index.php/jewel-of-india/", 
        "name": "Jewel of India", 
        "coordinates": [
            -76.97679579999999, 
            39.02118
        ], 
        "address": "10151 New Hampshire Avenue, Silver Spring, MD"
    }, 
    {
        "url": "https://tylercowensethnicdiningguide.com/index.php/keren-restaurant/", 
        "name": "Keren Restaurant", 
        "coordinates": [
            -77.0412654, 
            38.9167413
        ], 
        "address": "1780 Florida Avenue NW, Washington, DC"
    }, 
    {
        "url": "https://tylercowensethnicdiningguide.com/index.php/hunan-gate-restaurant/", 
        "name": "Hunan Gate Restaurant", 
        "coordinates": [
            -77.0881232, 
            38.8880747
        ], 
        "address": "4233 N. Fairfax Drive, Arlington, VA"
    }, 
    {
        "url": "https://tylercowensethnicdiningguide.com/index.php/bang-ga-nae/", 
        "name": "Bang Ga Nae", 
        "coordinates": [
            -77.1573982, 
            38.820854
        ], 
        "address": "6499 Little River Turnpike, Alexandria, VA"
    }, 
    {
        "url": "https://tylercowensethnicdiningguide.com/index.php/damoim/", 
        "name": "DaMoim", 
        "coordinates": [
            -77.1914376, 
            38.833016
        ], 
        "address": "7106 Columbia Pike, Annandale, VA"
    }, 
    {
        "url": "https://tylercowensethnicdiningguide.com/index.php/mandu-rang-kimbob/", 
        "name": "Mandu Rang Kimbob", 
        "coordinates": [
            -77.1943774, 
            38.8311748
        ], 
        "address": "7217 Columbia Pike, Annandale, VA,"
    }, 
    {
        "url": "https://tylercowensethnicdiningguide.com/index.php/super-chicken/", 
        "name": "Super Chicken", 
        "coordinates": [
            -77.1756856, 
            38.8802517
        ], 
        "address": "422 S. Washington Street, Falls Church, VA"
    }
]