[
    {
        "url": "https://tylercowensethnicdiningguide.com/index.php/xian-gourmet/", 
        "name": "Xian Gourmet", 
        "coordinates": [
            -77.1541336, 
            39.08996
        ], 
        "address": "316 N Washington St, Rockville, MD"
    }, 
    {
        "url": "https://tylercowensethnicdiningguide.com/index.php/asian-origin/", 
        "name": "Asian Origin", 
        "coordinates": [
            -77.22905879999999, 
            38.9204812
        ], 
        "address": "1753 Pinnacle Drive, McLean, VA"
    }, 
    {
        "url": "https://tylercowensethnicdiningguide.com/index.php/bistro-aracosia/", 
        "name": "Bistro Aracosia", 
        "coordinates": [
            -77.101728, 
            38.924938
        ], 
        "address": "5100 MacArthur Blvd. NW, Washington, DC"
    }, 
    {
        "url": "https://tylercowensethnicdiningguide.com/index.php/maydan/", 
        "name": "Maydan", 
        "coordinates": [
            -77.03106009999999, 
            38.9200557
        ], 
        "address": "1346 Florida Ave NW, Washington, DC"
    }, 
    {
        "url": "https://tylercowensethnicdiningguide.com/index.php/menomale/", 
        "name": "Menomale", 
        "coordinates": [
            -76.99014869999999, 
            38.9248479
        ], 
        "address": "2711 12th St NE, Washington, DC"
    }, 
    {
        "url": "https://tylercowensethnicdiningguide.com/index.php/takumi/", 
        "name": "Takumi", 
        "coordinates": [
            -77.1735671, 
            38.8806605
        ], 
        "address": "310 S. Washington Blvd., Falls Church, VA"
    }, 
    {
        "url": "https://tylercowensethnicdiningguide.com/index.php/marib/", 
        "name": "Marib", 
        "coordinates": [
            -77.1854606, 
            38.7955837
        ], 
        "address": "6981 Hechinger Drive, Springfield, VA"
    }, 
    {
        "url": "https://tylercowensethnicdiningguide.com/index.php/alborz/", 
        "name": "Alborz", 
        "coordinates": [
            -77.2366833, 
            38.9154709
        ], 
        "address": "8417 Old Courthouse Road, Vienna, VA"
    }, 
    {
        "url": "https://tylercowensethnicdiningguide.com/index.php/baan-thai/", 
        "name": "Baan Thai", 
        "coordinates": [
            -77.0324957, 
            38.9081483
        ], 
        "address": "1326 14th Street NW, Washington, DC"
    }, 
    {
        "url": "https://tylercowensethnicdiningguide.com/index.php/nanjing-bistro/", 
        "name": "Nanjing Bistro", 
        "coordinates": [
            -77.3343269, 
            38.8501967
        ], 
        "address": "11213 Lee Highway, Suite C, Fairfax, VA"
    }, 
    {
        "url": "https://tylercowensethnicdiningguide.com/index.php/dcity-smokehouse/", 
        "name": "DCity SmokeHouse", 
        "coordinates": [
            -77.0094146, 
            38.9108082
        ], 
        "address": "8 Florida Avenue NW, Washington, DC"
    }, 
    {
        "url": "https://tylercowensethnicdiningguide.com/index.php/roses-luxury/", 
        "name": "Roses Luxury", 
        "coordinates": [
            -76.995265, 
            38.8809541
        ], 
        "address": "707 8th Street SE, Washington, DC"
    }, 
    {
        "url": "https://tylercowensethnicdiningguide.com/index.php/super-bowl-noodle-house/", 
        "name": "Super Bowl Noodle House", 
        "coordinates": [
            -77.14141579999999, 
            39.0768915
        ], 
        "address": "785-G Rockville Pike, Rockville, MD"
    }, 
    {
        "url": "https://tylercowensethnicdiningguide.com/index.php/hunan-taste/", 
        "name": "Hunan Taste", 
        "coordinates": [
            -77.29591359999999, 
            38.86220850000001
        ], 
        "address": "10160 Fairfax Blvd., Fairfax, VA"
    }, 
    {
        "url": "https://tylercowensethnicdiningguide.com/index.php/the-partisan/", 
        "name": "The Partisan", 
        "coordinates": [
            -77.0224102, 
            38.8949307
        ], 
        "address": "709 D Street NW, Washington, DC"
    }, 
    {
        "url": "https://tylercowensethnicdiningguide.com/index.php/saba/", 
        "name": "Saba", 
        "coordinates": [
            -77.27109089999999, 
            38.84408060000001
        ], 
        "address": "3900 A Pickett Road, Fairfax, VA"
    }, 
    {
        "url": "https://tylercowensethnicdiningguide.com/index.php/thai-taste-by-kob/", 
        "name": "Thai Taste by Kob", 
        "coordinates": [
            -77.0492055, 
            39.0406491
        ], 
        "address": "11315 Fern Street, Wheaton, MD"
    }, 
    {
        "url": "https://tylercowensethnicdiningguide.com/index.php/charcoal-chicken/", 
        "name": "Charcoal Chicken", 
        "coordinates": [
            -77.42822, 
            38.8955679
        ], 
        "address": "13969 Metrotech Dr., Chantilly, VA"
    }, 
    {
        "url": "https://tylercowensethnicdiningguide.com/index.php/elephant-jumps-update/", 
        "name": "Elephant Jumps  Update", 
        "coordinates": [
            -77.225781, 
            38.8668415
        ], 
        "address": "8110 A Arlington Blvd, Falls Church, VA"
    }, 
    {
        "url": "https://tylercowensethnicdiningguide.com/index.php/shakthi/", 
        "name": "Shakthi", 
        "coordinates": [
            -77.0623153, 
            38.8395962
        ], 
        "address": "3807 Mount Vernon Avenue, Alexandria, VA"
    }, 
    {
        "url": "https://tylercowensethnicdiningguide.com/index.php/siroo/", 
        "name": "Siroo", 
        "coordinates": [
            -77.19783559999999, 
            38.832559
        ], 
        "address": "4231-N Markham Street, Annandale, VA"
    }, 
    {
        "url": "https://tylercowensethnicdiningguide.com/index.php/aladdin/", 
        "name": "Aladdin", 
        "coordinates": [
            -77.132919, 
            38.896697
        ], 
        "address": "5169 Lee Highway, Garden City Shopping Center, Arlington, VA"
    }, 
    {
        "url": "https://tylercowensethnicdiningguide.com/index.php/blue-sand-seafood/", 
        "name": "Blue Sand Seafood", 
        "coordinates": [
            -77.19783559999999, 
            38.832559
        ], 
        "address": "4231-H Markham Street, Annandale, VA"
    }, 
    {
        "url": "https://tylercowensethnicdiningguide.com/index.php/kogiya-korean-bbq/", 
        "name": "Kogiya, Korean BBQ", 
        "coordinates": [
            -77.19708519999999, 
            38.831871
        ], 
        "address": "4220 Annandale Road, Annandale, VA"
    }, 
    {
        "url": "https://tylercowensethnicdiningguide.com/index.php/nostos/", 
        "name": "Nostos", 
        "coordinates": [
            -77.2258757, 
            38.9137506
        ], 
        "address": "8100 Boone Blvd, Vienna, VA"
    }, 
    {
        "url": "https://tylercowensethnicdiningguide.com/index.php/elephant-jumps/", 
        "name": "Elephant Jumps", 
        "coordinates": [
            -77.225781, 
            38.8668415
        ], 
        "address": "8110 A Arlington Blvd, Falls Church, VA"
    }, 
    {
        "url": "https://tylercowensethnicdiningguide.com/index.php/panda-gourmet/", 
        "name": "Panda Gourmet", 
        "coordinates": [
            -76.9706475, 
            38.9179741
        ], 
        "address": "2700 New York Avenue NE, Washington, DC"
    }, 
    {
        "url": "https://tylercowensethnicdiningguide.com/index.php/bobs-shanghai-66/", 
        "name": "Bobs Shanghai 66", 
        "coordinates": [
            -77.1529403, 
            39.0890236
        ], 
        "address": "305 North Washington Street, Rockville, MD"
    }, 
    {
        "url": "https://tylercowensethnicdiningguide.com/index.php/east-dumpling-house/", 
        "name": "East Dumpling House", 
        "coordinates": [
            -77.1533584, 
            39.0845798
        ], 
        "address": "12 North Washington St., Suite 14G, Rockville, MD"
    }, 
    {
        "url": "https://tylercowensethnicdiningguide.com/index.php/gharer-khabar-2/", 
        "name": "Gharer Khabar", 
        "coordinates": [
            -77.1323148, 
            38.8966606
        ], 
        "address": "5151 Lee Highway, Arlington, VA"
    }
]