[
    {
        "url": "https://tylercowensethnicdiningguide.com/index.php/bistro-aracosia/", 
        "name": "Bistro Aracosia", 
        "coordinates": [
            -77.101728, 
            38.924938
        ], 
        "address": "5100 MacArthur Blvd. NW, Washington, DC"
    }, 
    {
        "url": "https://tylercowensethnicdiningguide.com/index.php/takumi/", 
        "name": "Takumi", 
        "coordinates": [
            -77.173571, 
            38.8806523
        ], 
        "address": "310 S. Washington Blvd., Falls Church, VA"
    }, 
    {
        "url": "https://tylercowensethnicdiningguide.com/index.php/marib/", 
        "name": "Marib", 
        "coordinates": [
            -77.1854606, 
            38.7955837
        ], 
        "address": "6981 Hechinger Drive, Springfield, VA"
    }, 
    {
        "url": "https://tylercowensethnicdiningguide.com/index.php/baan-thai/", 
        "name": "Baan Thai", 
        "coordinates": [
            -77.03230649999999, 
            38.9081524
        ], 
        "address": "1326 14th Street NW, Washington, DC"
    }, 
    {
        "url": "https://tylercowensethnicdiningguide.com/index.php/nanjing-bistro/", 
        "name": "Nanjing Bistro", 
        "coordinates": [
            -77.3343269, 
            38.8501967
        ], 
        "address": "11213 Lee Highway, Suite C, Fairfax, VA"
    }, 
    {
        "url": "https://tylercowensethnicdiningguide.com/index.php/dcity-smokehouse/", 
        "name": "DCity SmokeHouse", 
        "coordinates": [
            -77.0094146, 
            38.9108082
        ], 
        "address": "8 Florida Avenue NW, Washington, DC"
    }, 
    {
        "url": "https://tylercowensethnicdiningguide.com/index.php/roses-luxury/", 
        "name": "Roses Luxury", 
        "coordinates": [
            -76.995265, 
            38.8809541
        ], 
        "address": "707 8th Street SE, Washington, DC"
    }, 
    {
        "url": "https://tylercowensethnicdiningguide.com/index.php/super-bowl-noodle-house/", 
        "name": "Super Bowl Noodle House", 
        "coordinates": [
            -77.14141579999999, 
            39.0768915
        ], 
        "address": "785-G Rockville Pike, Rockville, MD"
    }, 
    {
        "url": "https://tylercowensethnicdiningguide.com/index.php/hunan-taste/", 
        "name": "Hunan Taste", 
        "coordinates": [
            -77.29591359999999, 
            38.86220850000001
        ], 
        "address": "10160 Fairfax Blvd., Fairfax, VA"
    }, 
    {
        "url": "https://tylercowensethnicdiningguide.com/index.php/the-partisan/", 
        "name": "The Partisan", 
        "coordinates": [
            -77.0224102, 
            38.8949307
        ], 
        "address": "709 D Street NW, Washington, DC"
    }, 
    {
        "url": "https://tylercowensethnicdiningguide.com/index.php/saba/", 
        "name": "Saba", 
        "coordinates": [
            -77.27109089999999, 
            38.84408060000001
        ], 
        "address": "3900 A Pickett Road, Fairfax, VA"
    }, 
    {
        "url": "https://tylercowensethnicdiningguide.com/index.php/thai-taste-by-kob/", 
        "name": "Thai Taste by Kob", 
        "coordinates": [
            -77.04918119999999, 
            39.0406586
        ], 
        "address": "11315 Fern Street, Wheaton, MD"
    }, 
    {
        "url": "https://tylercowensethnicdiningguide.com/index.php/charcoal-chicken/", 
        "name": "Charcoal Chicken", 
        "coordinates": [
            -77.4283257, 
            38.895558
        ], 
        "address": "13969 Metrotech Dr., Chantilly, VA"
    }, 
    {
        "url": "https://tylercowensethnicdiningguide.com/index.php/elephant-jumps-update/", 
        "name": "Elephant Jumps  Update", 
        "coordinates": [
            -77.225781, 
            38.8668415
        ], 
        "address": "8110 A Arlington Blvd, Falls Church, VA"
    }, 
    {
        "url": "https://tylercowensethnicdiningguide.com/index.php/shakthi/", 
        "name": "Shakthi", 
        "coordinates": [
            -77.0623153, 
            38.8395962
        ], 
        "address": "3807 Mount Vernon Avenue, Alexandria, VA"
    }, 
    {
        "url": "https://tylercowensethnicdiningguide.com/index.php/siroo/", 
        "name": "Siroo", 
        "coordinates": [
            -77.19783559999999, 
            38.832559
        ], 
        "address": "4231-N Markham Street, Annandale, VA"
    }, 
    {
        "url": "https://tylercowensethnicdiningguide.com/index.php/aladdin/", 
        "name": "Aladdin", 
        "coordinates": [
            -77.1325171, 
            38.8967032
        ], 
        "address": "5169 Lee Highway, Garden City Shopping Center, Arlington, VA"
    }, 
    {
        "url": "https://tylercowensethnicdiningguide.com/index.php/blue-sand-seafood/", 
        "name": "Blue Sand Seafood", 
        "coordinates": [
            -77.197693, 
            38.832528
        ], 
        "address": "4231-H Markham Street, Annandale, VA"
    }, 
    {
        "url": "https://tylercowensethnicdiningguide.com/index.php/kogiya-korean-bbq/", 
        "name": "Kogiya, Korean BBQ", 
        "coordinates": [
            -77.19708519999999, 
            38.831871
        ], 
        "address": "4220 Annandale Road, Annandale, VA"
    }, 
    {
        "url": "https://tylercowensethnicdiningguide.com/index.php/nostos/", 
        "name": "Nostos", 
        "coordinates": [
            -77.2258757, 
            38.9137506
        ], 
        "address": "8100 Boone Blvd, Vienna, VA"
    }, 
    {
        "url": "https://tylercowensethnicdiningguide.com/index.php/elephant-jumps/", 
        "name": "Elephant Jumps", 
        "coordinates": [
            -77.225781, 
            38.8668415
        ], 
        "address": "8110 A Arlington Blvd, Falls Church, VA"
    }, 
    {
        "url": "https://tylercowensethnicdiningguide.com/index.php/panda-gourmet/", 
        "name": "Panda Gourmet", 
        "coordinates": [
            -76.9706475, 
            38.9179741
        ], 
        "address": "2700 New York Avenue NE, Washington, DC"
    }, 
    {
        "url": "https://tylercowensethnicdiningguide.com/index.php/bobs-shanghai-66/", 
        "name": "Bobs Shanghai 66", 
        "coordinates": [
            -77.1529403, 
            39.0890236
        ], 
        "address": "305 North Washington Street, Rockville, MD"
    }, 
    {
        "url": "https://tylercowensethnicdiningguide.com/index.php/east-dumpling-house/", 
        "name": "East Dumpling House", 
        "coordinates": [
            -77.1533584, 
            39.0845798
        ], 
        "address": "12 North Washington St., Suite 14G, Rockville, MD"
    }, 
    {
        "url": "https://tylercowensethnicdiningguide.com/index.php/gharer-khabar-2/", 
        "name": "Gharer Khabar", 
        "coordinates": [
            -77.13229179999999, 
            38.8966064
        ], 
        "address": "5151 Lee Highway, Arlington, VA"
    }, 
    {
        "url": "https://tylercowensethnicdiningguide.com/index.php/jewel-of-india/", 
        "name": "Jewel of India", 
        "coordinates": [
            -76.9761255, 
            39.0218923
        ], 
        "address": "10151 New Hampshire Avenue, Silver Spring, MD"
    }, 
    {
        "url": "https://tylercowensethnicdiningguide.com/index.php/keren-restaurant/", 
        "name": "Keren Restaurant", 
        "coordinates": [
            -77.0412551, 
            38.9168463
        ], 
        "address": "1780 Florida Avenue NW, Washington, DC"
    }, 
    {
        "url": "https://tylercowensethnicdiningguide.com/index.php/hunan-gate-restaurant/", 
        "name": "Hunan Gate Restaurant", 
        "coordinates": [
            -77.1117175, 
            38.8823703
        ], 
        "address": "4233 N. Fairfax Drive, Arlington, VA"
    }, 
    {
        "url": "https://tylercowensethnicdiningguide.com/index.php/bang-ga-nae/", 
        "name": "Bang Ga Nae", 
        "coordinates": [
            -77.157387, 
            38.820874
        ], 
        "address": "6499 Little River Turnpike, Alexandria, VA"
    }, 
    {
        "url": "https://tylercowensethnicdiningguide.com/index.php/rr-tacqueria-gas-station-tacos/", 
        "name": "R&R Tacqueria  Gas station tacos", 
        "coordinates": [
            -76.7848949, 
            39.1725356
        ], 
        "address": "7894 Washington Blvd. (Rt.1), Elkridge, MD"
    }
]